{"92":{"business_id":"-3jJSQtMfsGacIUHaFcZbQ","name":"Bonsai By Sake Japanese & Thai Cuisine","address":"615 SW Broadway, Ste 102","city":"Portland","postal_code":97205.0,"latitude":45.5198128895,"longitude":-122.679629511,"stars":4.0,"tips":"Very good food! Love the vibe in this place too. Family friendly as well","cusines":"Japanese","checkins_count":121},"1915":{"business_id":"0ZRpi6S6ogby5IALbpZVBg","name":"Ruth's Chris Steak House","address":"850 SW Broadway","city":"Portland","postal_code":97205.0,"latitude":45.5181174367,"longitude":-122.680084,"stars":4.0,"tips":"Greedy and evil. Never again. Return the $20 million you took from us.","cusines":"American (Traditional)","checkins_count":104},"1927":{"business_id":"0_1g3DSi_dg8qDBXl0UYYA","name":"Costello's Travel Cafe","address":"2222 NE Broadway St","city":"Portland","postal_code":97232.0,"latitude":45.5347786,"longitude":-122.64243,"stars":4.5,"tips":"Friendly service. Appreciate the pointers. Great coffee.","cusines":"American (Traditional)","checkins_count":76},"2096":{"business_id":"0hnp-Xg51qq9JAv7I1b6xg","name":"Little Big Burger","address":"3704 SW Bond Ave","city":"Portland","postal_code":97239.0,"latitude":45.496371,"longitude":-122.670754,"stars":3.0,"tips":"They said they're going to be out of ice cream sandwiches for a while; that delivery ceased on them.","cusines":"American (Traditional)","checkins_count":79},"2202":{"business_id":"0nQ0cuUZUhUdr6d5PvDQYA","name":"FuddoYama Ramen","address":"8610 SW Hall Blvd","city":"Beaverton","postal_code":97008.0,"latitude":45.4581837,"longitude":-122.7837615,"stars":4.0,"tips":"Our favorite ramen shop!","cusines":"Japanese","checkins_count":121},"2485":{"business_id":"12IoMXKxPv30LN35U_DGRw","name":"Ichidai Restaurant","address":"5714 SE Powell Blvd","city":"Portland","postal_code":97206.0,"latitude":45.4972866,"longitude":-122.6035116,"stars":4.0,"tips":"Closed 7\/1\/19 through 7\/18\/19. \n4 stars hoping they're great when we try them later.","cusines":"Japanese","checkins_count":83},"2653":{"business_id":"1AhWHWtBLB4UherVKWae7Q","name":"Pot & Spicy","address":"8230 SE Harrison St, Ste \u00a0345","city":"Portland","postal_code":97216.0,"latitude":45.507702,"longitude":-122.5781642,"stars":4.5,"tips":"Their fried chicken wings are so yummy that I am going to cry!!!!!!!","cusines":"Chinese","checkins_count":121},"2778":{"business_id":"1HoKUVDFCpkCYMl-e6-E2w","name":"TILT","address":"1355 NW Everett St, Ste 120","city":"Portland","postal_code":97209.0,"latitude":45.5252738642,"longitude":-122.68443,"stars":3.5,"tips":"This place is gooooooood. Chicken sandwich.","cusines":"American (Traditional)","checkins_count":121},"4076":{"business_id":"2JUVSceit_tqtUwctTz2VQ","name":"Lela's Bistro","address":"1524 NW 23rd Ave","city":"Portland","postal_code":97210.0,"latitude":45.5337897,"longitude":-122.6985245,"stars":4.5,"tips":"Great food! Our pick for pho in Portland.","cusines":"Vietnamese","checkins_count":88},"8523":{"business_id":"63PrCfBDcRpBf4MT-6_gQQ","name":"Hat Yai","address":"1605 NE Killingsworth St","city":"Portland","postal_code":97211.0,"latitude":45.562862,"longitude":-122.648838,"stars":4.5,"tips":"We had the hat yai for 2. It was delicious. Their whole set up for covid is great!","cusines":"Thai","checkins_count":121},"8935":{"business_id":"6Qq_ikt4NKgpYwiyntIG4w","name":"Mee Sen Thai Eatery","address":"3924 N Mississippi Ave","city":"Portland","postal_code":97227.0,"latitude":45.5512434,"longitude":-122.6752042,"stars":4.0,"tips":"My favorite Thai in town!","cusines":"Thai","checkins_count":87},"11937":{"business_id":"8qEi1CFucFBy4YrEz0wYDw","name":"Super Deluxe","address":"5009 SE Powell Blvd","city":"Portland","postal_code":97206.0,"latitude":45.4977942232,"longitude":-122.6110754,"stars":3.5,"tips":"Check your bag before you leave the window.","cusines":"American (Traditional)","checkins_count":121},"12954":{"business_id":"9fcN6YIzQnXLJ_CvuWHdhA","name":"Avid Cider Co","address":"121 NW 9th Ave","city":"Portland","postal_code":97209.0,"latitude":45.523981,"longitude":-122.6804397,"stars":4.5,"tips":"Great place to watch a game!  Good wings, great pizza. Try the P-Town blend!","cusines":"American (New)","checkins_count":93},"13010":{"business_id":"9hz5Il6RRyGBW7FcwdZtaQ","name":"The Boiling Bowl","address":"103 NW 21st St","city":"Portland","postal_code":97209.0,"latitude":45.5238355,"longitude":-122.6945109,"stars":4.0,"tips":"Awesome Pho!","cusines":"Vietnamese","checkins_count":104},"15083":{"business_id":"BMHRmB0LGzKEAmry6UmVOA","name":"Farmhouse Kitchen Thai Cuisine","address":"3354 SE Hawthorne Blvd","city":"Portland","postal_code":97214.0,"latitude":45.5118627,"longitude":-122.62983453,"stars":4.5,"tips":"Always great!","cusines":"Thai","checkins_count":121},"16381":{"business_id":"CPlbpYBShdxbrfwAazYETA","name":"Thai Bloom","address":"3800 SW Cedar Hills Blvd","city":"Beaverton","postal_code":97005.0,"latitude":45.4918809,"longitude":-122.8094451,"stars":4.0,"tips":"This is the best Thai restaurant on the west side.","cusines":"Thai","checkins_count":121},"16843":{"business_id":"ClKtrr9LUlmg0rKvMGEOZA","name":"Radio Room","address":"1101 NE Alberta St","city":"Portland","postal_code":97211.0,"latitude":45.559299,"longitude":-122.654318,"stars":3.5,"tips":"Good stuff, The bartender was great!","cusines":"American (New)","checkins_count":120},"18675":{"business_id":"EEYN68zCpzOtV_GLr-KlCg","name":"Doug Fir Lounge","address":"830 E Burnside St","city":"Portland","postal_code":97214.0,"latitude":45.522641,"longitude":-122.656824,"stars":3.5,"tips":"We enjoyed the outdoor fire pit before it started to rain. They allow dogs outside. Be aware though of second hand smoke.","cusines":"American (Traditional)","checkins_count":101},"19249":{"business_id":"EgG2t6C22-mLU789Xw734w","name":"Pho Van Beaverton","address":"11651 SW Beaverton Hillsdale Hwy","city":"Beaverton","postal_code":97005.0,"latitude":45.4876336,"longitude":-122.7971589,"stars":3.5,"tips":"My favorite pho spot in town!","cusines":"Vietnamese","checkins_count":76},"19843":{"business_id":"FBQp3R_PQIM9eGnkqzmlOw","name":"Tasty n Alder","address":"580 SW 12th Ave","city":"Portland","postal_code":97205.0,"latitude":45.5213406,"longitude":-122.6834773,"stars":4.5,"tips":"Very good food and service but it can be hard to get in!","cusines":"American (New)","checkins_count":121},"21525":{"business_id":"GXR2Jv645UiQr971MZyHWA","name":"Basilisk","address":"820 NE 27th Ave","city":"Portland","postal_code":97232.0,"latitude":45.5290499433,"longitude":-122.638252,"stars":4.5,"tips":"Temporarily closed due to pandemic.","cusines":"American (New)","checkins_count":121},"21544":{"business_id":"GYcXkE8mXhGRJrKOqzbkEg","name":"Chipotle Mexican Grill","address":"240 SW Yamhill St","city":"Portland","postal_code":97204.0,"latitude":45.5173936911,"longitude":-122.6757697,"stars":3.0,"tips":"Order online, no wait to pick up!","cusines":"Mexican","checkins_count":77},"23062":{"business_id":"HkadlOCzd7LxcaEohvfl9A","name":"Big's Chicken","address":"4570 SW Watson Ave","city":"Beaverton","postal_code":97005.0,"latitude":45.4866615,"longitude":-122.8058581,"stars":4.0,"tips":"One of the best chicken places in the entire metro area! A must try if you have not","cusines":"American (Traditional)","checkins_count":121},"23363":{"business_id":"I-j0Vr9vJAddRJz_Em3pJg","name":"Pho Kim","address":"2204 SE 82nd Ave","city":"Portland","postal_code":97216.0,"latitude":45.5070160964,"longitude":-122.5784020498,"stars":4.0,"tips":"Maybe you guys should consider not being on Postmates. I've tried to support you numerous times during this insane Coronavirus time and each time it says you've cancelled the order because you're too busy. I've tried ordering like 10 times from you guys, from delivery services. Each time, cancelled. Just take yourself off the vendor list. :)","cusines":"Vietnamese","checkins_count":121},"23980":{"business_id":"IVv9n57Tbmf4kSgIWZUhKg","name":"Creepy's","address":"627 SE Morrison St","city":"Portland","postal_code":97214.0,"latitude":45.5173439098,"longitude":-122.6590959728,"stars":4.0,"tips":"Loved that shit","cusines":"American (Traditional)","checkins_count":83},"25252":{"business_id":"J_zVs3IL60sa7zGaOGDwoQ","name":"Mi Mero Mole","address":"32 NW 5th Ave","city":"Portland","postal_code":97209.0,"latitude":45.5236601,"longitude":-122.6751497,"stars":4.0,"tips":"Shit food Taco Bell is more Mexican then this shit hole","cusines":"Mexican","checkins_count":91},"25427":{"business_id":"JjOoABGI_bODnJzi0pXPxw","name":"Noraneko","address":"1430 SE Water Ave","city":"Portland","postal_code":97214.0,"latitude":45.512368,"longitude":-122.665523,"stars":3.5,"tips":"One of my fave ramen spots. Get the chicken and curry ramen if you fuck w cilantro.","cusines":"Japanese","checkins_count":103},"25689":{"business_id":"JwRtYdcqqpYc9ZuJV9sMlQ","name":"Kayo's Ramen Bar","address":"3808 N Williams Ave, Ste 124","city":"Portland","postal_code":97227.0,"latitude":45.5501766,"longitude":-122.6663747,"stars":4.0,"tips":"Such good food. Very popular ramen","cusines":"Japanese","checkins_count":121},"26836":{"business_id":"KsW9Wsaaa5QxNHDxXIDxJA","name":"Pho Hung","address":"4717 SE Powell Blvd","city":"Portland","postal_code":97206.0,"latitude":45.4977027804,"longitude":-122.6138127138,"stars":4.0,"tips":"I always know that I can count on Pho Hung for comfort and a delicious meal!","cusines":"Vietnamese","checkins_count":121},"27717":{"business_id":"LchQ3GdQ37GGk3QVqOYlOg","name":"Sushi Chiyo","address":"2905 SW Cedar Hills Blvd, Ste 125","city":"Beaverton","postal_code":97005.0,"latitude":45.4987566745,"longitude":-122.8083870572,"stars":3.5,"tips":".","cusines":"Japanese","checkins_count":121},"29332":{"business_id":"Mtflfhc3oLiD9Gm5cTVZhw","name":"Shandong Restaurant","address":"3724 NE Broadway St","city":"Portland","postal_code":97232.0,"latitude":45.5350058,"longitude":-122.6243404,"stars":3.5,"tips":"Delicious and helpful","cusines":"Chinese","checkins_count":84},"30123":{"business_id":"NWFL1R2KIw_U6WqDS-JlAQ","name":"Kenny & Zuke's Delicatessen","address":"1038 SW Stark St","city":"Portland","postal_code":97205.0,"latitude":45.5220669,"longitude":-122.6818751,"stars":3.5,"tips":"If you are a fan of white fish salad, absolutely grab at least 1\/4 LB of it.","cusines":"American (Traditional)","checkins_count":121},"30299":{"business_id":"NeRrmKfgM7g9wUC2cnNdIw","name":"Oyatsupan Bakers","address":"16025 SW Regatta Ln","city":"Beaverton","postal_code":97006.0,"latitude":45.517211,"longitude":-122.842116,"stars":4.5,"tips":"Too expensive!","cusines":"Japanese","checkins_count":121},"30517":{"business_id":"Nqy2tJV3AGqW9Uil-mzhGA","name":"Khao San Pearl","address":"1435 NW Flanders St, Ste A","city":"Portland","postal_code":97209.0,"latitude":45.5258341,"longitude":-122.6860839,"stars":4.0,"tips":"There is a tuktuk inside the restaurant and you can eat inside the tuktuk on a first-come, first-served basis.","cusines":"Thai","checkins_count":121},"30774":{"business_id":"O3tFGg1S7NG93XaXLNY0YQ","name":"Robo Taco","address":"607 SE Morrison St","city":"Portland","postal_code":97214.0,"latitude":45.5173515652,"longitude":-122.6594012082,"stars":3.5,"tips":"Good food, bad farts. Five stars.","cusines":"Mexican","checkins_count":84},"31504":{"business_id":"OiCCTRe0zsKT7l3rvob7Mw","name":"Bamboo Sushi","address":"404 SW 12th Ave","city":"Portland","postal_code":97205.0,"latitude":45.5223015,"longitude":-122.6828186,"stars":4.0,"tips":"Disappointing, overrated, and just not good. Not worth it, don't recommend.","cusines":"Japanese","checkins_count":121},"34558":{"business_id":"RF3nrl8XfAp1LtXCrn74XA","name":"Thai Nine","address":"108 SW Pine St","city":"Portland","postal_code":97204.0,"latitude":45.5209573,"longitude":-122.6722422,"stars":4.5,"tips":"This restaurant is now called Buranko. Different menu and atmosphere just same address.","cusines":"Thai","checkins_count":107},"36013":{"business_id":"SU89RDasriEghDchbNoZsw","name":"Jake's Grill","address":"611 SW 10th Ave","city":"Portland","postal_code":97205.0,"latitude":45.5206041,"longitude":-122.6823483,"stars":3.5,"tips":"So delicious! And great customer service!","cusines":"American (New)","checkins_count":121},"39879":{"business_id":"ViDT7_-VFrTdybp2WHiR5Q","name":"Kati Portland","address":"2932 SE Division St","city":"Portland","postal_code":97202.0,"latitude":45.5045814514,"longitude":-122.6349945068,"stars":4.5,"tips":"Delicious! The flavors are great and you don't miss the meat!","cusines":"Thai","checkins_count":121},"40817":{"business_id":"WWlkufMDXMmgOjnD_s1Wfg","name":"The Matador","address":"2424 E Burnside St","city":"Portland","postal_code":97214.0,"latitude":45.5226289,"longitude":-122.6408777,"stars":3.5,"tips":"Slow asssss service ... came in on. Saturday night and service was externally slow !","cusines":"Mexican","checkins_count":78},"41933":{"business_id":"XPWCQZJPRu08MtjceGyOaA","name":"Danwei Canting","address":"803 SE Stark St","city":"Portland","postal_code":97214.0,"latitude":45.5194446,"longitude":-122.6572934,"stars":4.0,"tips":"Vegan and gluten-free options are clearly marked on the menu.","cusines":"Chinese","checkins_count":121},"43973":{"business_id":"Z6P-iiwcqYimrV-_oszpQg","name":"Hilton Portland Downtown","address":"921 SW 6th Ave","city":"Portland","postal_code":97204.0,"latitude":45.5173584,"longitude":-122.6797302,"stars":3.5,"tips":"Great friendly staff!","cusines":"American (New)","checkins_count":115},"44474":{"business_id":"ZV6ixgIFXdWECPmYRc6DNA","name":"Ava Gene's","address":"3377 SE Division St","city":"Portland","postal_code":97202.0,"latitude":45.5049056304,"longitude":-122.6298817629,"stars":4.0,"tips":"Go for brunch. I highly recommend!!","cusines":"American (New)","checkins_count":78},"45456":{"business_id":"_Gp7wp0kLa9645oi3y_Ygw","name":"Pho Nguyen","address":"4795 SW 77th Ave","city":"Portland","postal_code":97225.0,"latitude":45.4856055,"longitude":-122.7572231,"stars":4.0,"tips":"This is the BEST Vietnamese food!!!","cusines":"Vietnamese","checkins_count":82},"48223":{"business_id":"bVWKty5Md1NGeR76uD-z1w","name":"Big's Chicken","address":"4606 NE Glisan St","city":"Portland","postal_code":97213.0,"latitude":45.5261224,"longitude":-122.615462,"stars":4.0,"tips":"Great food","cusines":"American (Traditional)","checkins_count":76},"49916":{"business_id":"crU16VRtOKYLkoVbjwGXRQ","name":"WildFin American Grill - Beaverton","address":"2725 SW Cedar Hills Blvd, Ste 130","city":"Beaverton","postal_code":97005.0,"latitude":45.5005773,"longitude":-122.8091936,"stars":4.0,"tips":"High price for mediocre food.. The service was about the same.","cusines":"American (Traditional)","checkins_count":121},"49989":{"business_id":"cvLkq3hxRKH--995r1gv4A","name":"Mediterranean Exploration Company","address":"333 NW 13th Ave","city":"Portland","postal_code":97209.0,"latitude":45.525543646,"longitude":-122.6844740767,"stars":4.5,"tips":"Some of the best Mediterranean food I've had.","cusines":"Mediterranean","checkins_count":121},"50218":{"business_id":"d69y3CN9_SQKrEnXXqQr8g","name":"King Burrito Mexican Food","address":"2924 N Lombard St","city":"Portland","postal_code":97217.0,"latitude":45.5769598,"longitude":-122.6970866,"stars":4.0,"tips":"Great chicken burrito","cusines":"Mexican","checkins_count":91},"50728":{"business_id":"dWuF7VxQF0R0BVTFHzBaHQ","name":"23Hoyt","address":"529 NW 23rd Ave","city":"Portland","postal_code":97210.0,"latitude":45.5268288015,"longitude":-122.6986800619,"stars":3.5,"tips":"$2 mimosas here!! Such an incredible deal for Brunch in PDX.","cusines":"American (Traditional)","checkins_count":104},"51088":{"business_id":"dpUMrsEepkWrK3lTMX0pRQ","name":"Island Cafe","address":"250 NE Tomahawk Island Dr","city":"Portland","postal_code":97217.0,"latitude":45.60359,"longitude":-122.66339,"stars":4.0,"tips":"Great service, delicious food, beautiful view!","cusines":"American (Traditional)","checkins_count":90},"52943":{"business_id":"fNCrWwMj1AEq5UYHPpCBxg","name":"Shoten Japanese Dining","address":"16165 SW Regatta Ln, Ste 500","city":"Beaverton","postal_code":97006.0,"latitude":45.5176625627,"longitude":-122.8434056577,"stars":4.0,"tips":"Salmon was fresh and the amount was proper.","cusines":"Japanese","checkins_count":108},"56672":{"business_id":"iTDV8qSUaxpQa6PhfrwBoA","name":"Paadee","address":"6 SE 28th Ave","city":"Portland","postal_code":97214.0,"latitude":45.522746,"longitude":-122.637124,"stars":4.0,"tips":"It was delicious. I got the crispy duck. My server Tim was awesome.","cusines":"American (New)","checkins_count":121},"59190":{"business_id":"kYyP_0BC0KBJ-fKNSb4D3A","name":"Marco's Cafe & Espresso Bar","address":"7910 SW 35th Ave","city":"Portland","postal_code":97219.0,"latitude":45.4673932,"longitude":-122.7126842,"stars":3.5,"tips":"Inconsistent quality of food.  Service is great and it's family friendly.","cusines":"American (Traditional)","checkins_count":92},"59555":{"business_id":"kqZa61d6WUJ717Enm5t9ow","name":"Si Senor","address":"8220 SW Hall Blvd","city":"Beaverton","postal_code":97008.0,"latitude":45.4608142,"longitude":-122.7931769,"stars":4.0,"tips":"Good food quality. Not enough rice. Shrimp ceviche the best","cusines":"Mexican","checkins_count":110},"60150":{"business_id":"lK-I8qZGu_ne56maS5im3Q","name":"Fire on the Mountain","address":"4225 N Interstate Ave","city":"Portland","postal_code":97217.0,"latitude":45.5541179683,"longitude":-122.6819765568,"stars":3.5,"tips":"What a pain.  You can't call to order, online not accepting orders.","cusines":"American (Traditional)","checkins_count":101},"60699":{"business_id":"lmfaXAcr5fR2bczIYw_dkg","name":"Baba's Mediterranean Grill","address":"10215 NE Cascades Pkwy","city":"Portland","postal_code":97220.0,"latitude":45.5727093,"longitude":-122.5570383,"stars":4.5,"tips":"Good food and good atmosphere","cusines":"Mediterranean","checkins_count":78},"62332":{"business_id":"n73rxa6e6-fTIxQzfv4BuA","name":"Mother\u2019s Bistro & Bar","address":"121 SW 3rd Ave","city":"Portland","postal_code":97204.0,"latitude":45.522196,"longitude":-122.673868,"stars":4.5,"tips":"Excellent comfort food. A little pricey. I return at least\nOnce a month.","cusines":"American (Traditional)","checkins_count":121},"64191":{"business_id":"ofaCxO85G8Lqd-4a5Fn45A","name":"Heron Lakes Golf Club","address":"3500 N Victory Blvd","city":"Portland","postal_code":97217.0,"latitude":45.604555,"longitude":-122.705109,"stars":3.5,"tips":"Nice layout.  Good price","cusines":"American (Traditional)","checkins_count":101},"64952":{"business_id":"pLpMLnKPyv5bDXmP_43nKg","name":"Benihana","address":"9205 SW Cascade Ave","city":"Beaverton","postal_code":97008.0,"latitude":45.4533771615,"longitude":-122.7855251563,"stars":3.5,"tips":"NEver disappoints!","cusines":"Japanese","checkins_count":116},"65594":{"business_id":"psqZvk0lyOtEnq5KptF_VQ","name":"Sunny's Diner","address":"9993 SE 82nd Ave","city":"Portland","postal_code":97222.0,"latitude":45.450946952,"longitude":-122.5793891028,"stars":4.0,"tips":"Great food and service. Will definitely go back.","cusines":"American (Traditional)","checkins_count":96},"66962":{"business_id":"r1VBBIelTdjwtqE4pKwghA","name":"Ramen Ryoma","address":"10500 SW Beaverton Hillsdale Hwy","city":"Beaverton","postal_code":97005.0,"latitude":45.4856519646,"longitude":-122.7847966924,"stars":4.5,"tips":"Killer Spicy Ramen was soo damn good!","cusines":"Japanese","checkins_count":121},"67610":{"business_id":"r_sOAVfNPaXrpjznZpuxeg","name":"Papi Chulo's","address":"611 NW 13th Ave","city":"Portland","postal_code":97209.0,"latitude":45.5274187,"longitude":-122.6844472,"stars":4.0,"tips":"Birra burrito. You're welcome.","cusines":"Mexican","checkins_count":121},"68969":{"business_id":"sekbE_TpoPkVWIHMu0uBiA","name":"Saburo's","address":"1667 SE Bybee Blvd","city":"Portland","postal_code":97202.0,"latitude":45.4738414,"longitude":-122.6482962,"stars":3.5,"tips":"have withdrawn money twice and do not want to return! disgusting attitude","cusines":"Japanese","checkins_count":121},"74003":{"business_id":"wlEV8uK53BYXf7lZEYBctA","name":"HunnyMilk","address":"1981 W Burnside St","city":"Portland","postal_code":97209.0,"latitude":45.5232386,"longitude":-122.6921151,"stars":4.0,"tips":"The best!","cusines":"American (New)","checkins_count":121},"74413":{"business_id":"x4sq4nYqjmeItcGjm8vLbw","name":"Living Room Theaters","address":"341 SW 10th Ave","city":"Portland","postal_code":97205.0,"latitude":45.5223194,"longitude":-122.6813545,"stars":4.0,"tips":"The best","cusines":"American (New)","checkins_count":93}}